{
  "query": "SELECT id, title, city, district, latitude, longitude FROM properties WHERE latitude IS NOT NULL LIMIT 15;",
  "command": "mysql --batch --raw --column-names --default-character-set=utf8mb4 --host gateway02.us-east-1.prod.aws.tidbcloud.com --port 4000 --user 3yaEUUPpH7u5Dce.4e413a58b2a3 --database FCSdcQDHNngsNZkY5BfGCD --execute SELECT id, title, city, district, latitude, longitude FROM properties WHERE latitude IS NOT NULL LIMIT 15;",
  "rows": [
    {
      "id": "1",
      "title": "فيلا فاخرة في حي النرجس",
      "city": "الرياض",
      "district": "النرجس",
      "latitude": "24.8343347",
      "longitude": "46.6791822"
    },
    {
      "id": "2",
      "title": "فيلا عصرية في حي الملقا",
      "city": "الرياض",
      "district": "الملقا",
      "latitude": "24.8142533",
      "longitude": "46.6106897"
    },
    {
      "id": "3",
      "title": "فيلا دوبلكس في حي الياسمين",
      "city": "الرياض",
      "district": "الياسمين",
      "latitude": "24.8245095",
      "longitude": "46.6470272"
    },
    {
      "id": "4",
      "title": "فيلا للإيجار في حي العليا",
      "city": "الرياض",
      "district": "العليا",
      "latitude": "24.6950870",
      "longitude": "46.6806472"
    },
    {
      "id": "5",
      "title": "شقة فاخرة في برج المملكة",
      "city": "الرياض",
      "district": "العليا",
      "latitude": "24.6950870",
      "longitude": "46.6806472"
    },
    {
      "id": "6",
      "title": "شقة مفروشة للإيجار في حي الروضة",
      "city": "الرياض",
      "district": "الروضة",
      "latitude": "24.8981673",
      "longitude": "46.9492340"
    },
    {
      "id": "7",
      "title": "شقة بحرية في جدة - الكورنيش",
      "city": "جدة",
      "district": "الكورنيش",
      "latitude": "21.6023186",
      "longitude": "39.1077514"
    },
    {
      "id": "8",
      "title": "شقة استوديو للإيجار في الدمام",
      "city": "الدمام",
      "district": "الفيصلية",
      "latitude": "26.3936870",
      "longitude": "50.0714033"
    },
    {
      "id": "9",
      "title": "أرض سكنية في حي العارض",
      "city": "الرياض",
      "district": "العارض",
      "latitude": "24.8935315",
      "longitude": "46.6060423"
    },
    {
      "id": "10",
      "title": "أرض تجارية على طريق الملك فهد",
      "city": "الرياض",
      "district": "السليمانية",
      "latitude": "24.7053134",
      "longitude": "46.7065848"
    },
    {
      "id": "11",
      "title": "أرض سكنية في مكة المكرمة",
      "city": "مكة المكرمة",
      "district": "العزيزية",
      "latitude": "21.4194706",
      "longitude": "39.8582709"
    },
    {
      "id": "12",
      "title": "معرض تجاري في حي الصحافة",
      "city": "الرياض",
      "district": "الصحافة",
      "latitude": "24.7994926",
      "longitude": "46.6438189"
    },
    {
      "id": "13",
      "title": "محل تجاري في مجمع تجاري بجدة",
      "city": "جدة",
      "district": "الحمراء",
      "latitude": "21.5291696",
      "longitude": "39.1610711"
    },
    {
      "id": "14",
      "title": "مكتب إداري في برج الفيصلية",
      "city": "الرياض",
      "district": "العليا",
      "latitude": "24.6950870",
      "longitude": "46.6806472"
    },
    {
      "id": "15",
      "title": "مكتب للإيجار في الخبر",
      "city": "الخبر",
      "district": "الكورنيش",
      "latitude": "26.3256532",
      "longitude": "50.2218529"
    }
  ],
  "messages": [],
  "stdout": "id\ttitle\tcity\tdistrict\tlatitude\tlongitude\n1\tفيلا فاخرة في حي النرجس\tالرياض\tالنرجس\t24.8343347\t46.6791822\n2\tفيلا عصرية في حي الملقا\tالرياض\tالملقا\t24.8142533\t46.6106897\n3\tفيلا دوبلكس في حي الياسمين\tالرياض\tالياسمين\t24.8245095\t46.6470272\n4\tفيلا للإيجار في حي العليا\tالرياض\tالعليا\t24.6950870\t46.6806472\n5\tشقة فاخرة في برج المملكة\tالرياض\tالعليا\t24.6950870\t46.6806472\n6\tشقة مفروشة للإيجار في حي الروضة\tالرياض\tالروضة\t24.8981673\t46.9492340\n7\tشقة بحرية في جدة - الكورنيش\tجدة\tالكورنيش\t21.6023186\t39.1077514\n8\tشقة استوديو للإيجار في الدمام\tالدمام\tالفيصلية\t26.3936870\t50.0714033\n9\tأرض سكنية في حي العارض\tالرياض\tالعارض\t24.8935315\t46.6060423\n10\tأرض تجارية على طريق الملك فهد\tالرياض\tالسليمانية\t24.7053134\t46.7065848\n11\tأرض سكنية في مكة المكرمة\tمكة المكرمة\tالعزيزية\t21.4194706\t39.8582709\n12\tمعرض تجاري في حي الصحافة\tالرياض\tالصحافة\t24.7994926\t46.6438189\n13\tمحل تجاري في مجمع تجاري بجدة\tجدة\tالحمراء\t21.5291696\t39.1610711\n14\tمكتب إداري في برج الفيصلية\tالرياض\tالعليا\t24.6950870\t46.6806472\n15\tمكتب للإيجار في الخبر\tالخبر\tالكورنيش\t26.3256532\t50.2218529\n",
  "stderr": "",
  "execution_time_ms": 1567
}